{
	"marketplaces": [{
				"id": "",
				"type": "marketplace",
				"continent": "NA",
				"city": "bronx",
				"state": "ny",
				"country": "USA",
				"utcOffset": "-05:00",
				"cityGeometry": [],
				"name": "fordham rd mall",
				"bidNumber": "49",
				"street": "fordham rd",
				"neighborhood": [],
				"gov_website": "http://www.fordhamroadbid.org",
				"location": [-73.895330, 40.862457],
				"geometry": [],
				"merchantDocId": "",
				"merchantCollection": "bronx_fordhamroad_merchants",
				"featuredMerchants": [],
				"featuredProducts": [],
				"ghostBlog": "",
				"twitterHandle": "",
				"fbHandle": ""
		},
		{
			"id": "",
			"type": "marketplace",
			"continent": "NA",
			"city": "bronx",
			"state": "ny",
			"country": "USA",
			"utcOffset": "-05:00",
			"cityGeometry": [],
			"name": "3rd ave hub",
			"bidNumber": "16",
			"street": "3rd ave",
			"neighborhood": "",
			"gov_website": "http://hub3rdavebid.com",
			"location": [-73.916421, 40.817144],
			"geometry": [],
			"merchantDocId": "",
			"merchantCollection": "bronx_3rdavehub_merchants",
			"featuredMerchants": [],
			"featuredProducts": [],
			"ghostBlog": "",
			"twitterHandle": "",
			"fbHandle": ""
		},
		{
				"id": "",
				"type": "marketplace",
				"continent": "NA",
				"city": "bronx",
				"state": "ny",
				"country": "USA",
				"utcOffset": "-05:00",
				"cityGeometry": [],
				"name": "stadium galleria",
				"bidNumber": "51",
				"street": "161st st",
				"neighborhood": "",
				"gov_website": "http://161bid.org/",
				"location": [-73.921896, 40.827181],
				"geometry": [],
				"merchantDocId": "",
				"merchantCollection": "bronx_stadiumgalleria_merchants",
				"featuredMerchants": [],
				"featuredProducts": [],
				"ghostBlog": "",
				"twitterHandle": "",
				"fbHandle": ""
			},
			{
				"id": "",
				"type": "marketplace",
				"continent": "NA",
				"city": "bronx",
				"state": "ny",
				"country": "USA",
				"utcOffset": "-05:00",
				"cityGeometry": [],
				"name": "jerome-gunhill rd mall",
				"bidNumber": "36",
				"street": "gunhill rd",
				"neighborhood": "",
				"gov_website": "http://www.jeromegunhillbid.org",
				"location": [-73.877113, 40.880728],
				"geometry": [],
				"merchantDocId": "",
				"merchantCollection": "bronx_jeromegunhillrdmall_merchants",
				"featuredMerchants": [],
				"featuredProducts": [],
				"ghostBlog": "",
				"twitterHandle": "",
				"fbHandle": ""
			}, {

				"id": "",
				"type": "marketplace",
				"continent": "NA",
				"city": "bronx",
				"state": "ny",
				"country": "USA",
				"utcOffset": "-05:00",
				"cityGeometry": [],
				"name": "white plains square",
				"bidNumber": "31",
				"street": "white plains rd",
				"neighborhood": "",
				"gov_website": "http://www.pelhamparkway.com",
				"location": [-73.867997,40.854272],
				"geometry": [],
				"merchantDocId": "",
				"merchantCollection": "bronx_whiteplainssquare_merchants",
				"featuredMerchants": [],
				"featuredProducts": [],
				"ghostBlog": "",
				"twitterHandle": "",
				"fbHandle": ""
			}, {

				"id": "",
				"type": "marketplace",
				"continent": "NA",
				"city": "bronx",
				"state": "ny",
				"country": "USA",
				"utcOffset": "-05:00",
				"cityGeometry": [],
				"bidNumber": "61",
				"name": "little italy of the bronx",
				"street": ["arthur ave"],
				"neighborhood": ["belmont"],
				"gov_website": "http://www.bronxlittleitaly.com/",
				"location": [-73.888554, 40.854860],
				"geometry": [],
				"merchantDocId": "",
				"merchantCollection": "bronx_littleitalyofthebronx_merchants",
				"featuredMerchants": [],
				"featuredProducts": [],
				"ghostBlog": "",
				"twitterHandle": "",
				"fbHandle": ""

		}, {

				"id": "",
				"type": "marketplace",
				"continent": "NA",
				"city": "bronx",
				"state": "ny",
				"country": "USA",
				"utcOffset": "-05:00",
				"cityGeometry": [],
				"bidNumber": "43",
				"name": "kingsbridge plaza",
				"street": ["kingsbridge ave"],
				"neighborhood": ["kingsbridge"],
				"gov_website": "http://kingsbridgebid.nyc",
				"location": [-73.895330, 40.862457],
				"geometry": [],
				"merchantDocId": "",
				"merchantCollection": "bronx_kingsbridgeave_merchants",
				"featuredMerchants": [],
				"featuredProducts": [],
				"ghostBlog": "",
				"twitterHandle": "",
				"fbHandle": ""
		}, {

				"id": "",
				"type": "marketplace",
				"continent": "NA",
				"city": "bronx",
				"state": "ny",
				"country": "USA",
				"utcOffset": "-05:00",
				"cityGeometry": [],
				"bidNumber": "59",
				"name": "southern blvd mall",
				"street": [],
				"neighborhood": ["kingsbridge"],
				"gov_website": "http://southernblvdbid.com",
				"location": [-73.891581, 40.823720],
				"geometry": [],
				"merchantDocId": "",
				"merchantCollection": "bronx_southernblvdmall_merchants",
				"featuredMerchants": [],
				"featuredProducts": [],
				"ghostBlog": "",
				"twitterHandle": "",
				"fbHandle": ""
		}, {
				"id": "",
				"type": "marketplace",
				"continent": "NA",
				"city": "bronx",
				"state": "ny",
				"country": "USA",
				"utcOffset": "-05:00",
				"cityGeometry": [],
				"bidNumber": "67",
				"name": "westchester square",
				"street": ["williamsbridge rd", "e tremont ave"],
				"neighborhood": ["williamsbridge rd", "e tremont ave"],
				"gov_website": "http://www.wsbid.org/",
				"location": [-73.843514, 40.842116],
				"geometry": [],
				"merchantDocId": "",
				"merchantCollection": "bronx_westchestersquare_merchants",
				"featuredMerchants": [],
				"featuredProducts": [],
				"ghostBlog": "",
				"twitterHandle": "",
				"fbHandle": ""
		}
]
}
